{
"type": "FeatureCollection",
"crs": { "type": "name", "properties": { "name": "urn:ogc:def:crs:OGC:1.3:CRS84" } },
                                                                                
"features": [
{ "type": "Feature", "properties": { "name": "山崎公園前", "住所": "神奈川県足柄下郡箱根町湯本" }, "geometry": { "type": "Point", "coordinates": [ 139.115824, 35.235114, 67.06 ] } },
{ "type": "Feature", "properties": { "name": "箱根医院前", "住所": "神奈川県足柄下郡箱根町湯本81" }, "geometry": { "type": "Point", "coordinates": [ 139.117391, 35.236726, 63.14 ] } },
{ "type": "Feature", "properties": { "name": "湯本地域スポーツ施設運動場", "住所": "神奈川県足柄下郡箱根町湯本" }, "geometry": { "type": "Point", "coordinates": [ 139.11153, 35.234539, 105.33 ] } },
{ "type": "Feature", "properties": { "name": "神明町公園", "住所": "神奈川県足柄下郡箱根町湯本196" }, "geometry": { "type": "Point", "coordinates": [ 139.111686, 35.232775, 79.58 ] } },
{ "type": "Feature", "properties": { "name": "湯本幼児学園園庭", "住所": "神奈川県足柄下郡箱根町湯本392" }, "geometry": { "type": "Point", "coordinates": [ 139.105549, 35.230328, 113.98 ] } },
{ "type": "Feature", "properties": { "name": "小川福則氏駐車場", "住所": "神奈川県足柄下郡箱根町湯本211-1" }, "geometry": { "type": "Point", "coordinates": [ 139.109505, 35.232958, 82.2 ] } },
{ "type": "Feature", "properties": { "name": "湯本富士屋ホテル庭", "住所": "神奈川県足柄下郡箱根町湯本256-1" }, "geometry": { "type": "Point", "coordinates": [ 139.104976, 35.232538, 106.19 ] } },
{ "type": "Feature", "properties": { "name": "コーポ和幸駐車場", "住所": "神奈川県足柄下郡箱根町湯本182" }, "geometry": { "type": "Point", "coordinates": [ 139.113438, 35.233093, 74.2 ] } },
{ "type": "Feature", "properties": { "name": "菊川儀長氏駐車場", "住所": "神奈川県足柄下郡箱根町湯本" }, "geometry": { "type": "Point", "coordinates": [ 139.108503, 35.232684, 85.0 ] } },
{ "type": "Feature", "properties": { "name": "観光物産館前", "住所": "神奈川県足柄下郡箱根町湯本703-19" }, "geometry": { "type": "Point", "coordinates": [ 139.102069, 35.232071, 97.71 ] } },
{ "type": "Feature", "properties": { "name": "吉池旅館玄関前", "住所": "神奈川県足柄下郡箱根町湯本597" }, "geometry": { "type": "Point", "coordinates": [ 139.100028, 35.23071, 103.84 ] } },
{ "type": "Feature", "properties": { "name": "金湯苑前", "住所": "神奈川県足柄下郡箱根町湯本" }, "geometry": { "type": "Point", "coordinates": [ 139.099713, 35.228654, 139.91 ] } },
{ "type": "Feature", "properties": { "name": "早雲公園駐車場", "住所": "神奈川県足柄下郡箱根町湯本字仲町410" }, "geometry": { "type": "Point", "coordinates": [ 139.104131, 35.229801, 121.28 ] } },
{ "type": "Feature", "properties": { "name": "湯本小学校校庭", "住所": "神奈川県足柄下郡箱根町湯本399-2" }, "geometry": { "type": "Point", "coordinates": [ 139.104813, 35.230514, 119.61 ] } },
{ "type": "Feature", "properties": { "name": "箱根路開雲駐車場", "住所": "神奈川県足柄下郡箱根町湯本521-3" }, "geometry": { "type": "Point", "coordinates": [ 139.09846, 35.229237, 112.13 ] } },
{ "type": "Feature", "properties": { "name": "箱根パークス吉野駐車場", "住所": "神奈川県足柄下郡箱根町湯本茶屋139-5" }, "geometry": { "type": "Point", "coordinates": [ 139.096066, 35.229089, 123.37 ] } },
{ "type": "Feature", "properties": { "name": "天成園駐車場", "住所": "神奈川県足柄下郡箱根町湯本茶屋129" }, "geometry": { "type": "Point", "coordinates": [ 139.095598, 35.228942, 125.04 ] } },
{ "type": "Feature", "properties": { "name": "ホテル南風荘駐車場", "住所": "神奈川県足柄下郡箱根町湯本茶屋179" }, "geometry": { "type": "Point", "coordinates": [ 139.091297, 35.225465, 152.78 ] } },
{ "type": "Feature", "properties": { "name": "ホテルおかだ駐車場", "住所": "神奈川県足柄下郡箱根町湯本茶屋191" }, "geometry": { "type": "Point", "coordinates": [ 139.092328, 35.226101, 143.05 ] } },
{ "type": "Feature", "properties": { "name": "静観荘駐車場", "住所": "神奈川県足柄下郡箱根町湯本茶屋19" }, "geometry": { "type": "Point", "coordinates": [ 139.096321, 35.228246, 167.74001 ] } },
{ "type": "Feature", "properties": { "name": "さるさわ駐車場", "住所": "神奈川県足柄下郡箱根町湯本茶屋86-2" }, "geometry": { "type": "Point", "coordinates": [ 139.09616650000001, 35.2255807, 212.42 ] } },
{ "type": "Feature", "properties": { "name": "あまゆ荘前", "住所": "神奈川県足柄下郡箱根町湯本茶屋36" }, "geometry": { "type": "Point", "coordinates": [ 139.097538, 35.228183, 161.42999 ] } },
{ "type": "Feature", "properties": { "name": "本陣前バス停留所前", "住所": "神奈川県足柄下郡箱根町畑宿227" }, "geometry": { "type": "Point", "coordinates": [ 139.063861, 35.213261, 389.47 ] } },
{ "type": "Feature", "properties": { "name": "畑の茶屋前", "住所": "神奈川県足柄下郡箱根町畑宿173" }, "geometry": { "type": "Point", "coordinates": [ 139.06258650000001, 35.2117126, 401.73001 ] } },
{ "type": "Feature", "properties": { "name": "畑宿寄木会館駐車場", "住所": "神奈川県足柄下郡箱根町畑宿103" }, "geometry": { "type": "Point", "coordinates": [ 139.062844, 35.213112, 407.89999 ] } },
{ "type": "Feature", "properties": { "name": "環翠楼駐車場", "住所": "神奈川県足柄下郡箱根町塔之澤88" }, "geometry": { "type": "Point", "coordinates": [ 139.092899, 35.232742, 129.22 ] } },
{ "type": "Feature", "properties": { "name": "よきや駐車場", "住所": "神奈川県足柄下郡箱根町塔之澤81" }, "geometry": { "type": "Point", "coordinates": [ 139.093847, 35.232946, 125.09 ] } },
{ "type": "Feature", "properties": { "name": "富士屋ホテルピコット下駐車場", "住所": "神奈川県足柄下郡箱根町宮ﾉ下359" }, "geometry": { "type": "Point", "coordinates": [ 139.059605, 35.244387, 422.16 ] } },
{ "type": "Feature", "properties": { "name": "温泉幼稚園園庭", "住所": "神奈川県足柄下郡箱根町宮ﾉ下413" }, "geometry": { "type": "Point", "coordinates": [ 139.0577677, 35.2425791, 478.04001 ] } },
{ "type": "Feature", "properties": { "name": "八千代橋横防災倉庫前", "住所": "神奈川県足柄下郡箱根町底倉558" }, "geometry": { "type": "Point", "coordinates": [ 139.057062, 35.245188, 420.95999 ] } },
{ "type": "Feature", "properties": { "name": "旧朝日生命木賀の里", "住所": "神奈川県足柄下郡箱根町木賀" }, "geometry": { "type": "Point", "coordinates": [ 139.0529487, 35.2476292, 419.14001 ] } },
{ "type": "Feature", "properties": { "name": "石原公園", "住所": "神奈川県足柄下郡箱根町大平台字石原542-1" }, "geometry": { "type": "Point", "coordinates": [ 139.0746169, 35.23675779, 339.34 ] } },
{ "type": "Feature", "properties": { "name": "大平台ふれあい広場", "住所": "神奈川県足柄下郡箱根町大平台353" }, "geometry": { "type": "Point", "coordinates": [ 139.0741433, 35.2381996, 341.5 ] } },
{ "type": "Feature", "properties": { "name": "恵明学園広場", "住所": "神奈川県足柄下郡箱根町小涌谷439-2" }, "geometry": { "type": "Point", "coordinates": [ 139.0505457, 35.2309753, 677.37 ] } },
{ "type": "Feature", "properties": { "name": "蓬莱園", "住所": "神奈川県足柄下郡箱根町小涌谷503" }, "geometry": { "type": "Point", "coordinates": [ 139.046651, 35.237008, 628.02002 ] } },
{ "type": "Feature", "properties": { "name": "小涌谷駅前広場", "住所": "神奈川県足柄下郡箱根町小涌谷466-6" }, "geometry": { "type": "Point", "coordinates": [ 139.052857, 35.240413, 524.03998 ] } },
{ "type": "Feature", "properties": { "name": "岡田広場", "住所": "神奈川県足柄下郡箱根町小涌谷451" }, "geometry": { "type": "Point", "coordinates": [ 139.052029, 35.23872, 552.65997 ] } },
{ "type": "Feature", "properties": { "name": "ホームセンターヤマダ駐車場", "住所": "神奈川県足柄下郡箱根町宮城野842" }, "geometry": { "type": "Point", "coordinates": [ 139.047061, 35.256527, 479.56 ] } },
{ "type": "Feature", "properties": { "name": "上河原公園", "住所": "足柄下郡箱根町宮城野921" }, "geometry": { "type": "Point", "coordinates": [ 139.048331, 35.254983, 464.12 ] } },
{ "type": "Feature", "properties": { "name": "諏訪神社前児童公園", "住所": "神奈川県足柄下郡箱根町宮城野" }, "geometry": { "type": "Point", "coordinates": [ 139.049814, 35.25773, 489.76999 ] } },
{ "type": "Feature", "properties": { "name": "勝俣隆弘氏宅隣畑", "住所": "神奈川県足柄下郡箱根町宮城野502" }, "geometry": { "type": "Point", "coordinates": [ 139.0499213, 35.257201, 485.07001 ] } },
{ "type": "Feature", "properties": { "name": "斎藤賢昭氏宅前空地", "住所": "神奈川県足柄下郡箱根町宮城野387" }, "geometry": { "type": "Point", "coordinates": [ 139.051096, 35.255906, 480.0 ] } },
{ "type": "Feature", "properties": { "name": "勝俣信治氏宅隣空地", "住所": "神奈川県足柄下郡箱根町宮城野585" }, "geometry": { "type": "Point", "coordinates": [ 139.050311, 35.254822, 461.60001 ] } },
{ "type": "Feature", "properties": { "name": "自笑園事務所前駐車場", "住所": "神奈川県足柄下郡箱根町宮城野342" }, "geometry": { "type": "Point", "coordinates": [ 139.051723, 35.254885, 463.26001 ] } },
{ "type": "Feature", "properties": { "name": "宝珠院駐車場", "住所": "神奈川県足柄下郡箱根町宮城野298" }, "geometry": { "type": "Point", "coordinates": [ 139.051866, 35.253806, 458.04999 ] } },
{ "type": "Feature", "properties": { "name": "セブンイレブン宮城野店駐車場", "住所": "神奈川県足柄下郡箱根町宮城野61" }, "geometry": { "type": "Point", "coordinates": [ 139.050752, 35.253853, 458.01001 ] } },
{ "type": "Feature", "properties": { "name": "箱根の森小学校校庭", "住所": "神奈川県足柄下郡箱根町宮城野225" }, "geometry": { "type": "Point", "coordinates": [ 139.054761, 35.253402, 492.01001 ] } },
{ "type": "Feature", "properties": { "name": "旧県立城内高校箱根分校跡地", "住所": "神奈川県足柄下郡箱根町宮城野137" }, "geometry": { "type": "Point", "coordinates": [ 139.051157, 35.253689, 457.60001 ] } },
{ "type": "Feature", "properties": { "name": "宮城野保育園園庭", "住所": "神奈川県足柄下郡箱根町宮城野102-1" }, "geometry": { "type": "Point", "coordinates": [ 139.051888, 35.252916, 455.70001 ] } },
{ "type": "Feature", "properties": { "name": "強羅駅前及び駅下広場", "住所": "神奈川県足柄下郡箱根町強羅1300-329" }, "geometry": { "type": "Point", "coordinates": [ 139.048222, 35.250388, 541.42999 ] } },
{ "type": "Feature", "properties": { "name": "強羅公園駐車場", "住所": "神奈川県足柄下郡 箱根町強羅1300" }, "geometry": { "type": "Point", "coordinates": [ 139.0458, 35.249026, 570.46002 ] } },
{ "type": "Feature", "properties": { "name": "帝京大学セミナーハウス駐車場", "住所": "神奈川県足柄下郡箱根町強羅1300-30" }, "geometry": { "type": "Point", "coordinates": [ 139.047388, 35.248327, 555.46002 ] } },
{ "type": "Feature", "properties": { "name": "世界救世教駐車場", "住所": "神奈川県足柄下郡箱根町強羅" }, "geometry": { "type": "Point", "coordinates": [ 139.042984, 35.250049, 607.96002 ] } },
{ "type": "Feature", "properties": { "name": "白百合学園上・下校庭", "住所": "神奈川県足柄下郡箱根町1320-203" }, "geometry": { "type": "Point", "coordinates": [ 139.047164, 35.251706, 546.66998 ] } },
{ "type": "Feature", "properties": { "name": "向山公園広場", "住所": "箱根町強羅字向山1320-670" }, "geometry": { "type": "Point", "coordinates": [ 139.047693, 35.250167, 549.15997 ] } },
{ "type": "Feature", "properties": { "name": "強羅こもれび坂", "住所": "神奈川県足柄下郡箱根町強羅" }, "geometry": { "type": "Point", "coordinates": [ 139.035275, 35.252018, 645.90997 ] } },
{ "type": "Feature", "properties": { "name": "二ノ平自治会館前", "住所": "神奈川県足柄下郡箱根町二ﾉ平1114" }, "geometry": { "type": "Point", "coordinates": [ 139.049837, 35.243413, 551.41998 ] } },
{ "type": "Feature", "properties": { "name": "彫刻の森駅前", "住所": "神奈川県足柄下郡箱根町二ﾉ平1204-6" }, "geometry": { "type": "Point", "coordinates": [ 139.050796, 35.24639, 538.69 ] } },
{ "type": "Feature", "properties": { "name": "ユネッサン第2駐車場", "住所": "神奈川県足柄下郡箱根町二ﾉ平1297" }, "geometry": { "type": "Point", "coordinates": [ 139.044166, 35.243543, 649.91998 ] } },
{ "type": "Feature", "properties": { "name": "箱根中学校校庭", "住所": "神奈川県足柄下郡箱根町二ﾉ平1154" }, "geometry": { "type": "Point", "coordinates": [ 139.050237, 35.245562, 549.5 ] } },
{ "type": "Feature", "properties": { "name": "喜多方ラーメン蔵一前広場", "住所": "神奈川県足柄下郡箱根町仙石原286" }, "geometry": { "type": "Point", "coordinates": [ 139.009462, 35.274348, 662.37 ] } },
{ "type": "Feature", "properties": { "name": "富士屋ホテル仙石ゴルフコースクラブハウス前駐車場", "住所": "神奈川県足柄下郡箱根町仙石原1237" }, "geometry": { "type": "Point", "coordinates": [ 138.992792, 35.27397, 742.27002 ] } },
{ "type": "Feature", "properties": { "name": "唐沢公園", "住所": "足柄下郡箱根町仙石原1160" }, "geometry": { "type": "Point", "coordinates": [ 139.001989, 35.271999, 658.58002 ] } },
{ "type": "Feature", "properties": { "name": "勝俣伸一氏所有駐車場", "住所": "奈川県足柄下郡箱根町仙石原223" }, "geometry": { "type": "Point", "coordinates": [ 139.009662, 35.271246, 646.69 ] } },
{ "type": "Feature", "properties": { "name": "長安寺前", "住所": "神奈川県足柄下郡箱根町仙石原82" }, "geometry": { "type": "Point", "coordinates": [ 139.012597, 35.273138, 650.90002 ] } },
{ "type": "Feature", "properties": { "name": "旧仙石原保育園園庭", "住所": "神奈川県足柄下郡箱根町仙石原106" }, "geometry": { "type": "Point", "coordinates": [ 139.0107219, 35.273121, 653.09998 ] } },
{ "type": "Feature", "properties": { "name": "小塚電通仙石寮前", "住所": "神奈川県足柄下郡箱根町仙石原1285-356" }, "geometry": { "type": "Point", "coordinates": [ 139.0194182, 35.26080457, 719.19 ] } },
{ "type": "Feature", "properties": { "name": "ガラスの森第2駐車場", "住所": "神奈川県足柄下郡箱根町仙石原1286-19" }, "geometry": { "type": "Point", "coordinates": [ 139.020271, 35.266529, 666.91998 ] } },
{ "type": "Feature", "properties": { "name": "仙石原小学校校庭", "住所": "神奈川県足柄下郡箱根町仙石原981" }, "geometry": { "type": "Point", "coordinates": [ 139.015188, 35.271126, 655.66998 ] } },
{ "type": "Feature", "properties": { "name": "仙石原公園", "住所": "神奈川県 足柄下郡 箱根町 仙石原842" }, "geometry": { "type": "Point", "coordinates": [ 139.010977, 35.269276, 643.78998 ] } },
{ "type": "Feature", "properties": { "name": "仙郷楼前（スナックアロン跡）駐車場", "住所": "神奈川県足柄下郡箱根町仙石原1284" }, "geometry": { "type": "Point", "coordinates": [ 139.013738, 35.264467, 651.94 ] } },
{ "type": "Feature", "properties": { "name": "仙石原地域スポーツ施設運動場", "住所": "神奈川県足柄下郡箱根町仙石原817" }, "geometry": { "type": "Point", "coordinates": [ 139.0098107, 35.26547227, 647.02002 ] } },
{ "type": "Feature", "properties": { "name": "第9分団詰所横駐車場", "住所": "神奈川県足柄下郡箱根町仙石原1245-454" }, "geometry": { "type": "Point", "coordinates": [ 139.000905, 35.247836, 822.38 ] } },
{ "type": "Feature", "properties": { "name": "湖尻集団施設地区運動広場", "住所": "神奈川県足柄下郡箱根町元箱根164-1" }, "geometry": { "type": "Point", "coordinates": [ 139.0009006, 35.2420531, 792.82001 ] } },
{ "type": "Feature", "properties": { "name": "県無料駐車場（桃源台）]", "住所": "神奈川県足柄下郡箱根町元箱根164" }, "geometry": { "type": "Point", "coordinates": [ 138.994338, 35.238305, 739.82001 ] } },
{ "type": "Feature", "properties": { "name": "箱根温泉供給（株）前駐車場", "住所": "神奈川県足柄下郡箱根町仙石原1251-1" }, "geometry": { "type": "Point", "coordinates": [ 139.026278, 35.250351, 801.91998 ] } },
{ "type": "Feature", "properties": { "name": "万岳楼前広場", "住所": "神奈川県足柄下郡箱根町仙石原1251" }, "geometry": { "type": "Point", "coordinates": [ 139.027891, 35.252679, 728.53998 ] } },
{ "type": "Feature", "properties": { "name": "パレスホテル箱根前広場", "住所": "神奈川県足柄下郡箱根町仙石原1245" }, "geometry": { "type": "Point", "coordinates": [ 138.997227, 35.247061, 791.46002 ] } },
{ "type": "Feature", "properties": { "name": "ホテルグリーンプラザ箱根広場", "住所": "神奈川県足柄下郡箱根町仙石原1245-10" }, "geometry": { "type": "Point", "coordinates": [ 139.006862, 35.24576, 876.48999 ] } },
{ "type": "Feature", "properties": { "name": "キャノン保養所前", "住所": "神奈川県足柄下郡箱根町仙石原1245-80" }, "geometry": { "type": "Point", "coordinates": [ 139.0008983, 35.2478018, 823.19 ] } },
{ "type": "Feature", "properties": { "name": "芦川町広場", "住所": "神奈川県足柄下郡箱根町箱根259" }, "geometry": { "type": "Point", "coordinates": [ 139.0222, 35.18772, 731.65997 ] } },
{ "type": "Feature", "properties": { "name": "箱根集会所駐車場", "住所": "神奈川県足柄下郡箱根町箱根221" }, "geometry": { "type": "Point", "coordinates": [ 139.02535, 35.188304, 728.90002 ] } },
{ "type": "Feature", "properties": { "name": "小田原町公園", "住所": "箱根町箱根字小田原町136-1" }, "geometry": { "type": "Point", "coordinates": [ 139.0264498, 35.1909863, 729.52002 ] } },
{ "type": "Feature", "properties": { "name": "県営駐車場及び苑地", "住所": "神奈川県足柄下郡箱根町箱根317-3" }, "geometry": { "type": "Point", "coordinates": [ 139.023727, 35.189229, 726.13 ] } },
{ "type": "Feature", "properties": { "name": "湖畔伊豆箱根船舶広場", "住所": "神奈川県足柄下郡箱根町元箱根" }, "geometry": { "type": "Point", "coordinates": [ 139.030802, 35.201406, 726.92999 ] } },
{ "type": "Feature", "properties": { "name": "賽之河原駐車場広場", "住所": "神奈川県足柄下郡箱根町元箱根9" }, "geometry": { "type": "Point", "coordinates": [ 139.030808, 35.201419, 726.92999 ] } },
{ "type": "Feature", "properties": { "name": "戸田宅跡地駐車場", "住所": "神奈川県足柄下郡箱根町元箱根107-2" }, "geometry": { "type": "Point", "coordinates": [ 139.032851, 35.203759, 734.23999 ] } },
{ "type": "Feature", "properties": { "name": "神社前園地広場", "住所": "神奈川県足柄下郡箱根町元箱根78-7" }, "geometry": { "type": "Point", "coordinates": [ 139.029049, 35.204378, 726.44 ] } },
{ "type": "Feature", "properties": { "name": "元箱根集会所前", "住所": "神奈川県足柄下郡箱根町元箱根63" }, "geometry": { "type": "Point", "coordinates": [ 139.030873, 35.204151, 727.67999 ] } },
{ "type": "Feature", "properties": { "name": "箱根グリーンハイツテニスコート", "住所": "神奈川県足柄下郡箱根町元箱根103-302" }, "geometry": { "type": "Point", "coordinates": [ 139.034963, 35.209538, 870.90997 ] } },
{ "type": "Feature", "properties": { "name": "阿字ヶ池園地", "住所": "神奈川県足柄下郡箱根町芦之湯" }, "geometry": { "type": "Point", "coordinates": [ 139.043023, 35.222472, 851.85999 ] } },
{ "type": "Feature", "properties": { "name": "湯の花ゴルフ場", "住所": "神奈川県足柄下郡箱根町元箱根  駐車場" }, "geometry": { "type": "Point", "coordinates": [ 139.037037, 35.226222, 935.12 ] } },
{ "type": "Feature", "properties": { "name": "箱根地域スポーツ施設運動場", "住所": "神奈川県足柄下郡箱根町箱根561" }, "geometry": { "type": "Point", "coordinates": [ 139.0299909, 35.19821555, 739.5 ] } }
]
}
